{
    "type": "FeatureCollection",
    "features": [
        {
            "type": "Feature",
            "properties": {
                "name": "颐和园管理处",
                "eleName": "出入口坡化"
            },
            "geometry": {
                "coordinates": [
                    116.277087,
                    39.999232
                ],
                "type": "Point"
            }
        },
        {
            "type": "Feature",
            "properties": {
                "name": "景山公园管理处",
                "eleName": "出入口坡化"
            },
            "geometry": {
                "coordinates": [
                    116.403138,
                    39.931711
                ],
                "type": "Point"
            }
        },
        {
            "type": "Feature",
            "properties": {
                "name": "北海公园管理处",
                "eleName": "出入口坡化"
            },
            "geometry": {
                "coordinates": [
                    116.39552,
                    39.931988
                ],
                "type": "Point"
            }
        },
        {
            "type": "Feature",
            "properties": {
                "name": "香山公园管理处",
                "eleName": "出入口坡化"
            },
            "geometry": {
                "coordinates": [
                    116.195521,
                    39.995971
                ],
                "type": "Point"
            }
        },
        {
            "type": "Feature",
            "properties": {
                "name": "紫竹院公园",
                "eleName": "出入口坡化"
            },
            "geometry": {
                "coordinates": [
                    116.326386,
                    39.947809
                ],
                "type": "Point"
            }
        },
        {
            "type": "Feature",
            "properties": {
                "name": "陶然亭公园管理处",
                "eleName": "出入口坡化"
            },
            "geometry": {
                "coordinates": [
                    116.388549,
                    39.880431
                ],
                "type": "Point"
            }
        },
        {
            "type": "Feature",
            "properties": {
                "name": "玉渊潭公园管理处",
                "eleName": "出入口坡化"
            },
            "geometry": {
                "coordinates": [
                    116.326961,
                    39.922526
                ],
                "type": "Point"
            }
        },
        {
            "type": "Feature",
            "properties": {
                "name": "北京植物园",
                "eleName": "出入口坡化"
            },
            "geometry": {
                "coordinates": [
                    116.216218,
                    40.007799
                ],
                "type": "Point"
            }
        },
        {
            "type": "Feature",
            "properties": {
                "name": "中国园林博物馆",
                "eleName": "出入口坡化"
            },
            "geometry": {
                "coordinates": [
                    116.197767,
                    39.882217
                ],
                "type": "Point"
            }
        },
        {
            "type": "Feature",
            "properties": {
                "name": "天坛公园管理处",
                "eleName": "出入口坡化"
            },
            "geometry": {
                "coordinates": [
                    116.417367,
                    39.887712
                ],
                "type": "Point"
            }
        },
        {
            "type": "Feature",
            "properties": {
                "name": "北京动物园",
                "eleName": "出入口坡化"
            },
            "geometry": {
                "coordinates": [
                    116.34234,
                    39.947671
                ],
                "type": "Point"
            }
        },
        {
            "type": "Feature",
            "properties": {
                "name": "中山公园管理处",
                "eleName": "出入口坡化"
            },
            "geometry": {
                "coordinates": [
                    116.401197,
                    39.918154
                ],
                "type": "Point"
            }
        },
        {
            "type": "Feature",
            "properties": {
                "name": "北京西站北广场",
                "eleName": "出入口坡化"
            },
            "geometry": {
                "coordinates": [
                    116.327737,
                    39.902463
                ],
                "type": "Point"
            }
        },
        {
            "type": "Feature",
            "properties": {
                "name": "北京西站南广场",
                "eleName": "出入口坡化"
            },
            "geometry": {
                "coordinates": [
                    116.327948,
                    39.89891
                ],
                "type": "Point"
            }
        },
        {
            "type": "Feature",
            "properties": {
                "name": "北下沉广场",
                "eleName": "出入口坡化"
            },
            "geometry": {
                "coordinates": [
                    116.327737,
                    39.902463
                ],
                "type": "Point"
            }
        },
        {
            "type": "Feature",
            "properties": {
                "name": "来广营乡立水桥公园",
                "eleName": "出入口坡化"
            },
            "geometry": {
                "coordinates": [
                    116.416225,
                    40.057639
                ],
                "type": "Point"
            }
        },
        {
            "type": "Feature",
            "properties": {
                "name": "朝阳区望京体育公园",
                "eleName": "出入口坡化"
            },
            "geometry": {
                "coordinates": [
                    116.475087,
                    40.003226
                ],
                "type": "Point"
            }
        },
        {
            "type": "Feature",
            "properties": {
                "name": "朝阳区东坝乡常新家园五区东坝郊野公园",
                "eleName": "出入口坡化"
            },
            "geometry": {
                "coordinates": [
                    116.580687,
                    39.960096
                ],
                "type": "Point"
            }
        },
        {
            "type": "Feature",
            "properties": {
                "name": "朝阳区百子湾公园",
                "eleName": "出入口坡化"
            },
            "geometry": {
                "coordinates": [
                    116.493607,
                    39.901487
                ],
                "type": "Point"
            }
        },
        {
            "type": "Feature",
            "properties": {
                "name": "鼓楼物美北侧公园",
                "eleName": "出入口坡化"
            },
            "geometry": {
                "coordinates": [
                    116.851985,
                    40.381607
                ],
                "type": "Point"
            }
        },
        {
            "type": "Feature",
            "properties": {
                "name": "中医院北侧玉兰公园",
                "eleName": "出入口坡化"
            },
            "geometry": {
                "coordinates": [
                    116.857393,
                    40.387092
                ],
                "type": "Point"
            }
        },
        {
            "type": "Feature",
            "properties": {
                "name": "北京市陶然亭公园管理处",
                "eleName": "出入口坡化"
            },
            "geometry": {
                "coordinates": [
                    116.388405,
                    39.880625
                ],
                "type": "Point"
            }
        },
        {
            "type": "Feature",
            "properties": {
                "name": "北京动物园",
                "eleName": "出入口坡化"
            },
            "geometry": {
                "coordinates": [
                    116.343376,
                    39.947735
                ],
                "type": "Point"
            }
        },
        {
            "type": "Feature",
            "properties": {
                "name": "北京市颐和园管理处",
                "eleName": "出入口坡化"
            },
            "geometry": {
                "coordinates": [
                    116.278749,
                    40.004869
                ],
                "type": "Point"
            }
        },
        {
            "type": "Feature",
            "properties": {
                "name": "亦城滨河公园二期",
                "eleName": "出入口坡化"
            },
            "geometry": {
                "coordinates": [
                    116.510046,
                    39.783313
                ],
                "type": "Point"
            }
        },
        {
            "type": "Feature",
            "properties": {
                "name": "亦庄滨河森林公园",
                "eleName": "出入口坡化"
            },
            "geometry": {
                "coordinates": [
                    116.509696,
                    39.782838
                ],
                "type": "Point"
            }
        },
        {
            "type": "Feature",
            "properties": {
                "name": "凉水河公园",
                "eleName": "出入口坡化"
            },
            "geometry": {
                "coordinates": [
                    116.540344,
                    39.770853
                ],
                "type": "Point"
            }
        },
        {
            "type": "Feature",
            "properties": {
                "name": "国际企业文化园",
                "eleName": "出入口坡化"
            },
            "geometry": {
                "coordinates": [
                    116.504551,
                    39.818821
                ],
                "type": "Point"
            }
        },
        {
            "type": "Feature",
            "properties": {
                "name": "博大公园",
                "eleName": "出入口坡化"
            },
            "geometry": {
                "coordinates": [
                    116.509716,
                    39.802884
                ],
                "type": "Point"
            }
        },
        {
            "type": "Feature",
            "properties": {
                "name": "芳菲园",
                "eleName": "出入口坡化"
            },
            "geometry": {
                "coordinates": [
                    116.253288,
                    39.922374
                ],
                "type": "Point"
            }
        },
        {
            "type": "Feature",
            "properties": {
                "name": "新安城市记忆公园",
                "eleName": "出入口坡化"
            },
            "geometry": {
                "coordinates": [
                    116.180143,
                    39.914508
                ],
                "type": "Point"
            }
        },
        {
            "type": "Feature",
            "properties": {
                "name": "朗园",
                "eleName": "出入口坡化"
            },
            "geometry": {
                "coordinates": [
                    116.24314,
                    39.919102
                ],
                "type": "Point"
            }
        },
        {
            "type": "Feature",
            "properties": {
                "name": "京西商务中心北侧绿地",
                "eleName": "出入口坡化"
            },
            "geometry": {
                "coordinates": [
                    116.191129,
                    39.912894
                ],
                "type": "Point"
            }
        },
        {
            "type": "Feature",
            "properties": {
                "name": "园林小区西侧绿地",
                "eleName": "出入口坡化"
            },
            "geometry": {
                "coordinates": [
                    116.250096,
                    39.914752
                ],
                "type": "Point"
            }
        },
        {
            "type": "Feature",
            "properties": {
                "name": "复兴花园",
                "eleName": "出入口坡化"
            },
            "geometry": {
                "coordinates": [
                    116.17981,
                    39.913215
                ],
                "type": "Point"
            }
        },
        {
            "type": "Feature",
            "properties": {
                "name": "游乐园文化广场1",
                "eleName": "出入口坡化"
            },
            "geometry": {
                "coordinates": [
                    116.214781,
                    39.913508
                ],
                "type": "Point"
            }
        },
        {
            "type": "Feature",
            "properties": {
                "name": "老山公园南区",
                "eleName": "出入口坡化"
            },
            "geometry": {
                "coordinates": [
                    116.234322,
                    39.917783
                ],
                "type": "Point"
            }
        },
        {
            "type": "Feature",
            "properties": {
                "name": "松林公园",
                "eleName": "出入口坡化"
            },
            "geometry": {
                "coordinates": [
                    116.21349,
                    39.912107
                ],
                "type": "Point"
            }
        },
        {
            "type": "Feature",
            "properties": {
                "name": "万达北绿地",
                "eleName": "出入口坡化"
            },
            "geometry": {
                "coordinates": [
                    116.232879,
                    39.912831
                ],
                "type": "Point"
            }
        },
        {
            "type": "Feature",
            "properties": {
                "name": "老山小区南侧绿地",
                "eleName": "出入口坡化"
            },
            "geometry": {
                "coordinates": [
                    116.226698,
                    39.914009
                ],
                "type": "Point"
            }
        },
        {
            "type": "Feature",
            "properties": {
                "name": "万达嘉华酒店东北绿地",
                "eleName": "出入口坡化"
            },
            "geometry": {
                "coordinates": [
                    116.235063,
                    39.912884
                ],
                "type": "Point"
            }
        },
        {
            "type": "Feature",
            "properties": {
                "name": "北京石景山游乐园",
                "eleName": "出入口坡化"
            },
            "geometry": {
                "coordinates": [
                    116.215291,
                    39.917734
                ],
                "type": "Point"
            }
        },
        {
            "type": "Feature",
            "properties": {
                "name": "八大处公园",
                "eleName": "出入口坡化"
            },
            "geometry": {
                "coordinates": [
                    116.190196,
                    39.968527
                ],
                "type": "Point"
            }
        },
        {
            "type": "Feature",
            "properties": {
                "name": "老山城市休闲公园",
                "eleName": "出入口坡化"
            },
            "geometry": {
                "coordinates": [
                    116.231188,
                    39.920565
                ],
                "type": "Point"
            }
        },
        {
            "type": "Feature",
            "properties": {
                "name": "古城公园",
                "eleName": "出入口坡化"
            },
            "geometry": {
                "coordinates": [
                    116.199792,
                    39.91781
                ],
                "type": "Point"
            }
        },
        {
            "type": "Feature",
            "properties": {
                "name": "石景山雕塑公园",
                "eleName": "出入口坡化"
            },
            "geometry": {
                "coordinates": [
                    116.20639,
                    39.917639
                ],
                "type": "Point"
            }
        },
        {
            "type": "Feature",
            "properties": {
                "name": "法海寺森林公园",
                "eleName": "出入口坡化"
            },
            "geometry": {
                "coordinates": [
                    116.165628,
                    39.94704
                ],
                "type": "Point"
            }
        },
        {
            "type": "Feature",
            "properties": {
                "name": "北京国际雕塑公园",
                "eleName": "出入口坡化"
            },
            "geometry": {
                "coordinates": [
                    116.248701,
                    39.91168
                ],
                "type": "Point"
            }
        },
        {
            "type": "Feature",
            "properties": {
                "name": "老山东里50栋前小广场",
                "eleName": "出入口坡化"
            },
            "geometry": {
                "coordinates": [
                    116.228294,
                    39.917234
                ],
                "type": "Point"
            }
        },
        {
            "type": "Feature",
            "properties": {
                "name": "老街坊广场",
                "eleName": "出入口坡化"
            },
            "geometry": {
                "coordinates": [
                    116.130214,
                    39.963787
                ],
                "type": "Point"
            }
        },
        {
            "type": "Feature",
            "properties": {
                "name": "南宫嘉园小区内广场",
                "eleName": "出入口坡化"
            },
            "geometry": {
                "coordinates": [
                    116.132498,
                    39.968034
                ],
                "type": "Point"
            }
        },
        {
            "type": "Feature",
            "properties": {
                "name": "中塔有限责任公司",
                "eleName": "出入口坡化"
            },
            "geometry": {
                "coordinates": [
                    116.313408,
                    39.925278
                ],
                "type": "Point"
            }
        },
        {
            "type": "Feature",
            "properties": {
                "name": "北京鹫峰国家森林公园",
                "eleName": "出入口坡化"
            },
            "geometry": {
                "coordinates": [
                    116.086286,
                    40.061584
                ],
                "type": "Point"
            }
        },
        {
            "type": "Feature",
            "properties": {
                "name": "汇通诺尔狂飚运动乐园",
                "eleName": "出入口坡化"
            },
            "geometry": {
                "coordinates": [
                    116.145096,
                    40.057589
                ],
                "type": "Point"
            }
        },
        {
            "type": "Feature",
            "properties": {
                "name": "太平洋海底世界博览馆有限公司",
                "eleName": "出入口坡化"
            },
            "geometry": {
                "coordinates": [
                    116.312736,
                    39.924793
                ],
                "type": "Point"
            }
        },
        {
            "type": "Feature",
            "properties": {
                "name": "阳台山自然风景区",
                "eleName": "出入口坡化"
            },
            "geometry": {
                "coordinates": [
                    116.112124,
                    40.072459
                ],
                "type": "Point"
            }
        },
        {
            "type": "Feature",
            "properties": {
                "name": "上庄翠湖农业观光园",
                "eleName": "出入口坡化"
            },
            "geometry": {
                "coordinates": [
                    116.233504,
                    40.106099
                ],
                "type": "Point"
            }
        },
        {
            "type": "Feature",
            "properties": {
                "name": "北京凤凰岭景区管理有限责任公司",
                "eleName": "出入口坡化"
            },
            "geometry": {
                "coordinates": [
                    116.091588,
                    40.112884
                ],
                "type": "Point"
            }
        },
        {
            "type": "Feature",
            "properties": {
                "name": "圆明园管理处",
                "eleName": "出入口坡化"
            },
            "geometry": {
                "coordinates": [
                    116.309804,
                    40.012658
                ],
                "type": "Point"
            }
        },
        {
            "type": "Feature",
            "properties": {
                "name": "北京御仙都皇家菜博物馆",
                "eleName": "出入口坡化"
            },
            "geometry": {
                "coordinates": [
                    116.277154,
                    39.95198
                ],
                "type": "Point"
            }
        },
        {
            "type": "Feature",
            "properties": {
                "name": "北京稻香湖投资发展有限责任公司",
                "eleName": "出入口坡化"
            },
            "geometry": {
                "coordinates": [
                    116.188155,
                    40.098775
                ],
                "type": "Point"
            }
        },
        {
            "type": "Feature",
            "properties": {
                "name": "管理处南侧卫生间坡道",
                "eleName": "出入口坡化"
            },
            "geometry": {
                "coordinates": [
                    116.317727,
                    40.008013
                ],
                "type": "Point"
            }
        },
        {
            "type": "Feature",
            "properties": {
                "name": "地铁A口东侧坡道",
                "eleName": "出入口坡化"
            },
            "geometry": {
                "coordinates": [
                    116.315598,
                    40.005567
                ],
                "type": "Point"
            }
        },
        {
            "type": "Feature",
            "properties": {
                "name": "正觉寺文殊亭高台西",
                "eleName": "出入口坡化"
            },
            "geometry": {
                "coordinates": [
                    116.31562,
                    40.0069
                ],
                "type": "Point"
            }
        },
        {
            "type": "Feature",
            "properties": {
                "name": "游客服务中心正面",
                "eleName": "出入口坡化"
            },
            "geometry": {
                "coordinates": [
                    116.319712,
                    40.006393
                ],
                "type": "Point"
            }
        },
        {
            "type": "Feature",
            "properties": {
                "name": "正觉寺无障碍地图",
                "eleName": "出入口坡化"
            },
            "geometry": {
                "coordinates": [
                    116.316168,
                    40.005902
                ],
                "type": "Point"
            }
        },
        {
            "type": "Feature",
            "properties": {
                "name": "三孔桥地面平整",
                "eleName": "出入口坡化"
            },
            "geometry": {
                "coordinates": [
                    116.31765,
                    40.011111
                ],
                "type": "Point"
            }
        },
        {
            "type": "Feature",
            "properties": {
                "name": "正觉寺最上楼出入口",
                "eleName": "出入口坡化"
            },
            "geometry": {
                "coordinates": [
                    116.315786,
                    40.007052
                ],
                "type": "Point"
            }
        },
        {
            "type": "Feature",
            "properties": {
                "name": "正觉寺出口外侧坡道",
                "eleName": "出入口坡化"
            },
            "geometry": {
                "coordinates": [
                    116.31575,
                    40.007225
                ],
                "type": "Point"
            }
        },
        {
            "type": "Feature",
            "properties": {
                "name": "正觉寺文殊亭出口",
                "eleName": "出入口坡化"
            },
            "geometry": {
                "coordinates": [
                    116.315777,
                    40.006918
                ],
                "type": "Point"
            }
        },
        {
            "type": "Feature",
            "properties": {
                "name": "无障碍导向标识06",
                "eleName": "出入口坡化"
            },
            "geometry": {
                "coordinates": [
                    116.307531,
                    40.011612
                ],
                "type": "Point"
            }
        },
        {
            "type": "Feature",
            "properties": {
                "name": "无障碍导向标识11",
                "eleName": "出入口坡化"
            },
            "geometry": {
                "coordinates": [
                    116.314295,
                    40.01873
                ],
                "type": "Point"
            }
        },
        {
            "type": "Feature",
            "properties": {
                "name": "南门广场出入口",
                "eleName": "出入口坡化"
            },
            "geometry": {
                "coordinates": [
                    116.318481,
                    40.006493
                ],
                "type": "Point"
            }
        },
        {
            "type": "Feature",
            "properties": {
                "name": "大水法平台盲道提示",
                "eleName": "出入口坡化"
            },
            "geometry": {
                "coordinates": [
                    116.319865,
                    40.019272
                ],
                "type": "Point"
            }
        },
        {
            "type": "Feature",
            "properties": {
                "name": "南门入口坡道内",
                "eleName": "出入口坡化"
            },
            "geometry": {
                "coordinates": [
                    116.319043,
                    40.006628
                ],
                "type": "Point"
            }
        },
        {
            "type": "Feature",
            "properties": {
                "name": "银杏大道绿油门外侧3",
                "eleName": "出入口坡化"
            },
            "geometry": {
                "coordinates": [
                    116.315804,
                    40.014775
                ],
                "type": "Point"
            }
        },
        {
            "type": "Feature",
            "properties": {
                "name": "正觉寺出口内侧坡道",
                "eleName": "出入口坡化"
            },
            "geometry": {
                "coordinates": [
                    116.315746,
                    40.007191
                ],
                "type": "Point"
            }
        },
        {
            "type": "Feature",
            "properties": {
                "name": "无障碍地图导向06",
                "eleName": "出入口坡化"
            },
            "geometry": {
                "coordinates": [
                    116.307217,
                    40.011404
                ],
                "type": "Point"
            }
        },
        {
            "type": "Feature",
            "properties": {
                "name": "东门卫生间东侧坡道",
                "eleName": "出入口坡化"
            },
            "geometry": {
                "coordinates": [
                    116.324504,
                    40.019079
                ],
                "type": "Point"
            }
        },
        {
            "type": "Feature",
            "properties": {
                "name": "正觉寺文殊亭入口",
                "eleName": "出入口坡化"
            },
            "geometry": {
                "coordinates": [
                    116.315836,
                    40.006793
                ],
                "type": "Point"
            }
        },
        {
            "type": "Feature",
            "properties": {
                "name": "无障碍导向标识07",
                "eleName": "出入口坡化"
            },
            "geometry": {
                "coordinates": [
                    116.29561,
                    40.013504
                ],
                "type": "Point"
            }
        },
        {
            "type": "Feature",
            "properties": {
                "name": "无障碍导向标识01",
                "eleName": "出入口坡化"
            },
            "geometry": {
                "coordinates": [
                    116.318014,
                    40.007536
                ],
                "type": "Point"
            }
        },
        {
            "type": "Feature",
            "properties": {
                "name": "小南园无障碍停车位1",
                "eleName": "出入口坡化"
            },
            "geometry": {
                "coordinates": [
                    116.315059,
                    40.005443
                ],
                "type": "Point"
            }
        },
        {
            "type": "Feature",
            "properties": {
                "name": "清史书店南出入口",
                "eleName": "出入口坡化"
            },
            "geometry": {
                "coordinates": [
                    116.318454,
                    40.006241
                ],
                "type": "Point"
            }
        },
        {
            "type": "Feature",
            "properties": {
                "name": "正觉寺东文创店出口",
                "eleName": "出入口坡化"
            },
            "geometry": {
                "coordinates": [
                    116.316006,
                    40.007166
                ],
                "type": "Point"
            }
        },
        {
            "type": "Feature",
            "properties": {
                "name": "无障碍地图导向04",
                "eleName": "出入口坡化"
            },
            "geometry": {
                "coordinates": [
                    116.314241,
                    40.012223
                ],
                "type": "Point"
            }
        },
        {
            "type": "Feature",
            "properties": {
                "name": "正觉寺侧门外侧木质坡道",
                "eleName": "出入口坡化"
            },
            "geometry": {
                "coordinates": [
                    116.316334,
                    40.005992
                ],
                "type": "Point"
            }
        },
        {
            "type": "Feature",
            "properties": {
                "name": "正觉寺西文创店出口",
                "eleName": "出入口坡化"
            },
            "geometry": {
                "coordinates": [
                    116.315544,
                    40.007125
                ],
                "type": "Point"
            }
        },
        {
            "type": "Feature",
            "properties": {
                "name": "正觉寺侧门闸机",
                "eleName": "出入口坡化"
            },
            "geometry": {
                "coordinates": [
                    116.316159,
                    40.005913
                ],
                "type": "Point"
            }
        },
        {
            "type": "Feature",
            "properties": {
                "name": "绮春园交通船售票处",
                "eleName": "出入口坡化"
            },
            "geometry": {
                "coordinates": [
                    116.31734,
                    40.008731
                ],
                "type": "Point"
            }
        },
        {
            "type": "Feature",
            "properties": {
                "name": "正觉寺三圣殿高台",
                "eleName": "出入口坡化"
            },
            "geometry": {
                "coordinates": [
                    116.316051,
                    40.006676
                ],
                "type": "Point"
            }
        },
        {
            "type": "Feature",
            "properties": {
                "name": "传习所出入口1",
                "eleName": "出入口坡化"
            },
            "geometry": {
                "coordinates": [
                    116.316846,
                    40.00822
                ],
                "type": "Point"
            }
        },
        {
            "type": "Feature",
            "properties": {
                "name": "银杏大道绿油门1",
                "eleName": "出入口坡化"
            },
            "geometry": {
                "coordinates": [
                    116.307724,
                    40.015311
                ],
                "type": "Point"
            }
        },
        {
            "type": "Feature",
            "properties": {
                "name": "东门售票处",
                "eleName": "出入口坡化"
            },
            "geometry": {
                "coordinates": [
                    116.323822,
                    40.019175
                ],
                "type": "Point"
            }
        },
        {
            "type": "Feature",
            "properties": {
                "name": "南门卫生间无障碍间",
                "eleName": "出入口坡化"
            },
            "geometry": {
                "coordinates": [
                    116.320044,
                    40.006265
                ],
                "type": "Point"
            }
        },
        {
            "type": "Feature",
            "properties": {
                "name": "无障碍导向标识05",
                "eleName": "出入口坡化"
            },
            "geometry": {
                "coordinates": [
                    116.321571,
                    40.019016
                ],
                "type": "Point"
            }
        },
        {
            "type": "Feature",
            "properties": {
                "name": "大水法商店正门无障碍指引",
                "eleName": "出入口坡化"
            },
            "geometry": {
                "coordinates": [
                    116.318311,
                    40.019555
                ],
                "type": "Point"
            }
        },
        {
            "type": "Feature",
            "properties": {
                "name": "无障碍路线指引03",
                "eleName": "出入口坡化"
            },
            "geometry": {
                "coordinates": [
                    116.314304,
                    40.018692
                ],
                "type": "Point"
            }
        },
        {
            "type": "Feature",
            "properties": {
                "name": "东门停车场无障碍车位01",
                "eleName": "出入口坡化"
            },
            "geometry": {
                "coordinates": [
                    116.324141,
                    40.019355
                ],
                "type": "Point"
            }
        },
        {
            "type": "Feature",
            "properties": {
                "name": "无障碍导向标识02",
                "eleName": "出入口坡化"
            },
            "geometry": {
                "coordinates": [
                    116.315355,
                    40.012316
                ],
                "type": "Point"
            }
        },
        {
            "type": "Feature",
            "properties": {
                "name": "明春门商亭",
                "eleName": "出入口坡化"
            },
            "geometry": {
                "coordinates": [
                    116.314677,
                    40.017507
                ],
                "type": "Point"
            }
        },
        {
            "type": "Feature",
            "properties": {
                "name": "无障碍导向标识08",
                "eleName": "出入口坡化"
            },
            "geometry": {
                "coordinates": [
                    116.317691,
                    40.011011
                ],
                "type": "Point"
            }
        },
        {
            "type": "Feature",
            "properties": {
                "name": "南门停车场无障碍车位2",
                "eleName": "出入口坡化"
            },
            "geometry": {
                "coordinates": [
                    116.320287,
                    40.006244
                ],
                "type": "Point"
            }
        },
        {
            "type": "Feature",
            "properties": {
                "name": "东门卫生间西侧坡道",
                "eleName": "出入口坡化"
            },
            "geometry": {
                "coordinates": [
                    116.324365,
                    40.019075
                ],
                "type": "Point"
            }
        },
        {
            "type": "Feature",
            "properties": {
                "name": "小南园无障碍停车位2",
                "eleName": "出入口坡化"
            },
            "geometry": {
                "coordinates": [
                    116.315283,
                    40.005588
                ],
                "type": "Point"
            }
        },
        {
            "type": "Feature",
            "properties": {
                "name": "正觉寺盲文地图",
                "eleName": "出入口坡化"
            },
            "geometry": {
                "coordinates": [
                    116.316141,
                    40.005861
                ],
                "type": "Point"
            }
        },
        {
            "type": "Feature",
            "properties": {
                "name": "正觉寺文殊亭高台东",
                "eleName": "出入口坡化"
            },
            "geometry": {
                "coordinates": [
                    116.315899,
                    40.006928
                ],
                "type": "Point"
            }
        },
        {
            "type": "Feature",
            "properties": {
                "name": "地铁A口接驳坡道",
                "eleName": "出入口坡化"
            },
            "geometry": {
                "coordinates": [
                    116.315342,
                    40.005502
                ],
                "type": "Point"
            }
        },
        {
            "type": "Feature",
            "properties": {
                "name": "正觉寺院落通道1",
                "eleName": "出入口坡化"
            },
            "geometry": {
                "coordinates": [
                    116.31611,
                    40.006272
                ],
                "type": "Point"
            }
        },
        {
            "type": "Feature",
            "properties": {
                "name": "无障碍地图导向05",
                "eleName": "出入口坡化"
            },
            "geometry": {
                "coordinates": [
                    116.314277,
                    40.01874
                ],
                "type": "Point"
            }
        },
        {
            "type": "Feature",
            "properties": {
                "name": "三孔桥商铺出入口",
                "eleName": "出入口坡化"
            },
            "geometry": {
                "coordinates": [
                    116.317336,
                    40.012095
                ],
                "type": "Point"
            }
        },
        {
            "type": "Feature",
            "properties": {
                "name": "东门无障碍地图",
                "eleName": "出入口坡化"
            },
            "geometry": {
                "coordinates": [
                    116.323705,
                    40.019306
                ],
                "type": "Point"
            }
        },
        {
            "type": "Feature",
            "properties": {
                "name": "清史书店东出入口",
                "eleName": "出入口坡化"
            },
            "geometry": {
                "coordinates": [
                    116.318463,
                    40.006234
                ],
                "type": "Point"
            }
        },
        {
            "type": "Feature",
            "properties": {
                "name": "管理处口商亭",
                "eleName": "出入口坡化"
            },
            "geometry": {
                "coordinates": [
                    116.317282,
                    40.008783
                ],
                "type": "Point"
            }
        },
        {
            "type": "Feature",
            "properties": {
                "name": "银杏大道绿油门3",
                "eleName": "出入口坡化"
            },
            "geometry": {
                "coordinates": [
                    116.314816,
                    40.016098
                ],
                "type": "Point"
            }
        },
        {
            "type": "Feature",
            "properties": {
                "name": "南门卫生间坡道",
                "eleName": "出入口坡化"
            },
            "geometry": {
                "coordinates": [
                    116.32004,
                    40.006258
                ],
                "type": "Point"
            }
        },
        {
            "type": "Feature",
            "properties": {
                "name": "无障碍地图导向07",
                "eleName": "出入口坡化"
            },
            "geometry": {
                "coordinates": [
                    116.296383,
                    40.008462
                ],
                "type": "Point"
            }
        },
        {
            "type": "Feature",
            "properties": {
                "name": "福海北侧观景平台",
                "eleName": "出入口坡化"
            },
            "geometry": {
                "coordinates": [
                    116.312817,
                    40.017714
                ],
                "type": "Point"
            }
        },
        {
            "type": "Feature",
            "properties": {
                "name": "三园交界导览牌",
                "eleName": "出入口坡化"
            },
            "geometry": {
                "coordinates": [
                    116.31611,
                    40.012344
                ],
                "type": "Point"
            }
        },
        {
            "type": "Feature",
            "properties": {
                "name": "东门停车场无障碍车位02",
                "eleName": "出入口坡化"
            },
            "geometry": {
                "coordinates": [
                    116.324195,
                    40.019382
                ],
                "type": "Point"
            }
        },
        {
            "type": "Feature",
            "properties": {
                "name": "南门售票处正面",
                "eleName": "出入口坡化"
            },
            "geometry": {
                "coordinates": [
                    116.31898,
                    40.006482
                ],
                "type": "Point"
            }
        },
        {
            "type": "Feature",
            "properties": {
                "name": "正觉寺侧门坡道",
                "eleName": "出入口坡化"
            },
            "geometry": {
                "coordinates": [
                    116.316186,
                    40.00593
                ],
                "type": "Point"
            }
        },
        {
            "type": "Feature",
            "properties": {
                "name": "南门增加盲文地图",
                "eleName": "出入口坡化"
            },
            "geometry": {
                "coordinates": [
                    116.318984,
                    40.006479
                ],
                "type": "Point"
            }
        },
        {
            "type": "Feature",
            "properties": {
                "name": "南门售票处侧面",
                "eleName": "出入口坡化"
            },
            "geometry": {
                "coordinates": [
                    116.318966,
                    40.006493
                ],
                "type": "Point"
            }
        },
        {
            "type": "Feature",
            "properties": {
                "name": "正觉寺院落通道2",
                "eleName": "出入口坡化"
            },
            "geometry": {
                "coordinates": [
                    116.315993,
                    40.00671
                ],
                "type": "Point"
            }
        },
        {
            "type": "Feature",
            "properties": {
                "name": "无障碍导向标识04",
                "eleName": "出入口坡化"
            },
            "geometry": {
                "coordinates": [
                    116.312768,
                    40.012164
                ],
                "type": "Point"
            }
        },
        {
            "type": "Feature",
            "properties": {
                "name": "无障碍路线指引01",
                "eleName": "出入口坡化"
            },
            "geometry": {
                "coordinates": [
                    116.317978,
                    40.007546
                ],
                "type": "Point"
            }
        },
        {
            "type": "Feature",
            "properties": {
                "name": "正觉寺天王殿入口",
                "eleName": "出入口坡化"
            },
            "geometry": {
                "coordinates": [
                    116.315953,
                    40.006192
                ],
                "type": "Point"
            }
        },
        {
            "type": "Feature",
            "properties": {
                "name": "无障碍导向标识03",
                "eleName": "出入口坡化"
            },
            "geometry": {
                "coordinates": [
                    116.315652,
                    40.010334
                ],
                "type": "Point"
            }
        },
        {
            "type": "Feature",
            "properties": {
                "name": "西洋楼盲文地图",
                "eleName": "出入口坡化"
            },
            "geometry": {
                "coordinates": [
                    116.319155,
                    40.019303
                ],
                "type": "Point"
            }
        },
        {
            "type": "Feature",
            "properties": {
                "name": "鉴碧亭观景平台",
                "eleName": "出入口坡化"
            },
            "geometry": {
                "coordinates": [
                    116.318126,
                    40.00661
                ],
                "type": "Point"
            }
        },
        {
            "type": "Feature",
            "properties": {
                "name": "正觉寺东文创店入口",
                "eleName": "出入口坡化"
            },
            "geometry": {
                "coordinates": [
                    116.316092,
                    40.007042
                ],
                "type": "Point"
            }
        },
        {
            "type": "Feature",
            "properties": {
                "name": "管理处桥坡道",
                "eleName": "出入口坡化"
            },
            "geometry": {
                "coordinates": [
                    116.317174,
                    40.008814
                ],
                "type": "Point"
            }
        },
        {
            "type": "Feature",
            "properties": {
                "name": "大水法商店坡道",
                "eleName": "出入口坡化"
            },
            "geometry": {
                "coordinates": [
                    116.318374,
                    40.019569
                ],
                "type": "Point"
            }
        },
        {
            "type": "Feature",
            "properties": {
                "name": "涵秋馆坡道2",
                "eleName": "出入口坡化"
            },
            "geometry": {
                "coordinates": [
                    116.317206,
                    40.010617
                ],
                "type": "Point"
            }
        },
        {
            "type": "Feature",
            "properties": {
                "name": "大水法西侧平台坡道",
                "eleName": "出入口坡化"
            },
            "geometry": {
                "coordinates": [
                    116.31867,
                    40.01921
                ],
                "type": "Point"
            }
        },
        {
            "type": "Feature",
            "properties": {
                "name": "传习所出入口2",
                "eleName": "出入口坡化"
            },
            "geometry": {
                "coordinates": [
                    116.31686,
                    40.008237
                ],
                "type": "Point"
            }
        },
        {
            "type": "Feature",
            "properties": {
                "name": "大水法东侧平台坡道",
                "eleName": "出入口坡化"
            },
            "geometry": {
                "coordinates": [
                    116.319887,
                    40.01931
                ],
                "type": "Point"
            }
        },
        {
            "type": "Feature",
            "properties": {
                "name": "西洋楼中英文地图",
                "eleName": "出入口坡化"
            },
            "geometry": {
                "coordinates": [
                    116.318014,
                    40.019134
                ],
                "type": "Point"
            }
        },
        {
            "type": "Feature",
            "properties": {
                "name": "正觉寺北桥坡道",
                "eleName": "出入口坡化"
            },
            "geometry": {
                "coordinates": [
                    116.315202,
                    40.007446
                ],
                "type": "Point"
            }
        },
        {
            "type": "Feature",
            "properties": {
                "name": "无障碍路线指引06",
                "eleName": "出入口坡化"
            },
            "geometry": {
                "coordinates": [
                    116.29561,
                    40.013408
                ],
                "type": "Point"
            }
        },
        {
            "type": "Feature",
            "properties": {
                "name": "福海东侧观景平台",
                "eleName": "出入口坡化"
            },
            "geometry": {
                "coordinates": [
                    116.313801,
                    40.01595
                ],
                "type": "Point"
            }
        },
        {
            "type": "Feature",
            "properties": {
                "name": "正觉寺三圣殿入口",
                "eleName": "出入口坡化"
            },
            "geometry": {
                "coordinates": [
                    116.315917,
                    40.006548
                ],
                "type": "Point"
            }
        },
        {
            "type": "Feature",
            "properties": {
                "name": "御水坊商亭",
                "eleName": "出入口坡化"
            },
            "geometry": {
                "coordinates": [
                    116.317349,
                    40.01099
                ],
                "type": "Point"
            }
        },
        {
            "type": "Feature",
            "properties": {
                "name": "无障碍路线指引04",
                "eleName": "出入口坡化"
            },
            "geometry": {
                "coordinates": [
                    116.312669,
                    40.012133
                ],
                "type": "Point"
            }
        },
        {
            "type": "Feature",
            "properties": {
                "name": "无障碍路线指引02",
                "eleName": "出入口坡化"
            },
            "geometry": {
                "coordinates": [
                    116.315445,
                    40.012275
                ],
                "type": "Point"
            }
        },
        {
            "type": "Feature",
            "properties": {
                "name": "无障碍导向标识10",
                "eleName": "出入口坡化"
            },
            "geometry": {
                "coordinates": [
                    116.320916,
                    40.013311
                ],
                "type": "Point"
            }
        },
        {
            "type": "Feature",
            "properties": {
                "name": "南门停车场无障碍车位1",
                "eleName": "出入口坡化"
            },
            "geometry": {
                "coordinates": [
                    116.320228,
                    40.006261
                ],
                "type": "Point"
            }
        },
        {
            "type": "Feature",
            "properties": {
                "name": "正觉寺西文创店入口",
                "eleName": "出入口坡化"
            },
            "geometry": {
                "coordinates": [
                    116.315503,
                    40.006959
                ],
                "type": "Point"
            }
        },
        {
            "type": "Feature",
            "properties": {
                "name": "正觉寺三圣殿出口",
                "eleName": "出入口坡化"
            },
            "geometry": {
                "coordinates": [
                    116.315831,
                    40.006755
                ],
                "type": "Point"
            }
        },
        {
            "type": "Feature",
            "properties": {
                "name": "无障碍路线指引05",
                "eleName": "出入口坡化"
            },
            "geometry": {
                "coordinates": [
                    116.321563,
                    40.018992
                ],
                "type": "Point"
            }
        },
        {
            "type": "Feature",
            "properties": {
                "name": "地面高差提示",
                "eleName": "出入口坡化"
            },
            "geometry": {
                "coordinates": [
                    116.313639,
                    40.017297
                ],
                "type": "Point"
            }
        },
        {
            "type": "Feature",
            "properties": {
                "name": "银杏大道绿油门外侧2",
                "eleName": "出入口坡化"
            },
            "geometry": {
                "coordinates": [
                    116.314708,
                    40.016108
                ],
                "type": "Point"
            }
        },
        {
            "type": "Feature",
            "properties": {
                "name": "黄花阵平台坡道",
                "eleName": "出入口坡化"
            },
            "geometry": {
                "coordinates": [
                    116.315063,
                    40.01931
                ],
                "type": "Point"
            }
        },
        {
            "type": "Feature",
            "properties": {
                "name": "银杏大道绿油门外侧1",
                "eleName": "出入口坡化"
            },
            "geometry": {
                "coordinates": [
                    116.315158,
                    40.013194
                ],
                "type": "Point"
            }
        },
        {
            "type": "Feature",
            "properties": {
                "name": "东门盲文地图",
                "eleName": "出入口坡化"
            },
            "geometry": {
                "coordinates": [
                    116.323714,
                    40.019334
                ],
                "type": "Point"
            }
        },
        {
            "type": "Feature",
            "properties": {
                "name": "无障碍地图导向02",
                "eleName": "出入口坡化"
            },
            "geometry": {
                "coordinates": [
                    116.316083,
                    40.012372
                ],
                "type": "Point"
            }
        },
        {
            "type": "Feature",
            "properties": {
                "name": "涵秋馆坡道3",
                "eleName": "出入口坡化"
            },
            "geometry": {
                "coordinates": [
                    116.317188,
                    40.010617
                ],
                "type": "Point"
            }
        },
        {
            "type": "Feature",
            "properties": {
                "name": "正觉寺山门出口",
                "eleName": "出入口坡化"
            },
            "geometry": {
                "coordinates": [
                    116.316011,
                    40.005947
                ],
                "type": "Point"
            }
        },
        {
            "type": "Feature",
            "properties": {
                "name": "东门商亭",
                "eleName": "出入口坡化"
            },
            "geometry": {
                "coordinates": [
                    116.323889,
                    40.019189
                ],
                "type": "Point"
            }
        },
        {
            "type": "Feature",
            "properties": {
                "name": "涵秋馆坡道1",
                "eleName": "出入口坡化"
            },
            "geometry": {
                "coordinates": [
                    116.317179,
                    40.01061
                ],
                "type": "Point"
            }
        },
        {
            "type": "Feature",
            "properties": {
                "name": "银杏大道绿油门2",
                "eleName": "出入口坡化"
            },
            "geometry": {
                "coordinates": [
                    116.314704,
                    40.016102
                ],
                "type": "Point"
            }
        },
        {
            "type": "Feature",
            "properties": {
                "name": "无障碍导向标识09",
                "eleName": "出入口坡化"
            },
            "geometry": {
                "coordinates": [
                    116.315512,
                    40.00727
                ],
                "type": "Point"
            }
        },
        {
            "type": "Feature",
            "properties": {
                "name": "管理处南侧卫生间无障碍间",
                "eleName": "出入口坡化"
            },
            "geometry": {
                "coordinates": [
                    116.317592,
                    40.008223
                ],
                "type": "Point"
            }
        },
        {
            "type": "Feature",
            "properties": {
                "name": "南门入口坡道外",
                "eleName": "出入口坡化"
            },
            "geometry": {
                "coordinates": [
                    116.319043,
                    40.006628
                ],
                "type": "Point"
            }
        },
        {
            "type": "Feature",
            "properties": {
                "name": "正觉寺山门入口",
                "eleName": "出入口坡化"
            },
            "geometry": {
                "coordinates": [
                    116.316051,
                    40.005864
                ],
                "type": "Point"
            }
        },
        {
            "type": "Feature",
            "properties": {
                "name": "无障碍地图导向01",
                "eleName": "出入口坡化"
            },
            "geometry": {
                "coordinates": [
                    116.315526,
                    40.007287
                ],
                "type": "Point"
            }
        },
        {
            "type": "Feature",
            "properties": {
                "name": "无障碍地图导向03",
                "eleName": "出入口坡化"
            },
            "geometry": {
                "coordinates": [
                    116.317974,
                    40.007539
                ],
                "type": "Point"
            }
        },
        {
            "type": "Feature",
            "properties": {
                "name": "游客服务中心侧面",
                "eleName": "出入口坡化"
            },
            "geometry": {
                "coordinates": [
                    116.319721,
                    40.006403
                ],
                "type": "Point"
            }
        },
        {
            "type": "Feature",
            "properties": {
                "name": "南门无障碍地图导览",
                "eleName": "出入口坡化"
            },
            "geometry": {
                "coordinates": [
                    116.318962,
                    40.006486
                ],
                "type": "Point"
            }
        },
        {
            "type": "Feature",
            "properties": {
                "name": "正觉寺天王殿出口",
                "eleName": "出入口坡化"
            },
            "geometry": {
                "coordinates": [
                    116.315912,
                    40.006248
                ],
                "type": "Point"
            }
        },
        {
            "type": "Feature",
            "properties": {
                "name": "集成绿地",
                "eleName": "出入口坡化"
            },
            "geometry": {
                "coordinates": [
                    116.252842,
                    40.079151
                ],
                "type": "Point"
            }
        },
        {
            "type": "Feature",
            "properties": {
                "name": "清林苑",
                "eleName": "出入口坡化"
            },
            "geometry": {
                "coordinates": [
                    116.362061,
                    40.021272
                ],
                "type": "Point"
            }
        },
        {
            "type": "Feature",
            "properties": {
                "name": "北极寺公园",
                "eleName": "出入口坡化"
            },
            "geometry": {
                "coordinates": [
                    116.383592,
                    39.991771
                ],
                "type": "Point"
            }
        },
        {
            "type": "Feature",
            "properties": {
                "name": "会城门公园",
                "eleName": "出入口坡化"
            },
            "geometry": {
                "coordinates": [
                    116.339883,
                    39.906691
                ],
                "type": "Point"
            }
        },
        {
            "type": "Feature",
            "properties": {
                "name": "中央电视塔公园",
                "eleName": "出入口坡化"
            },
            "geometry": {
                "coordinates": [
                    116.314286,
                    39.926607
                ],
                "type": "Point"
            }
        },
        {
            "type": "Feature",
            "properties": {
                "name": "五福玲珑",
                "eleName": "出入口坡化"
            },
            "geometry": {
                "coordinates": [
                    116.29451,
                    39.945966
                ],
                "type": "Point"
            }
        },
        {
            "type": "Feature",
            "properties": {
                "name": "颐慧佳园代征地",
                "eleName": "出入口坡化"
            },
            "geometry": {
                "coordinates": [
                    116.294501,
                    39.942032
                ],
                "type": "Point"
            }
        },
        {
            "type": "Feature",
            "properties": {
                "name": "金源娱乐园",
                "eleName": "出入口坡化"
            },
            "geometry": {
                "coordinates": [
                    116.296093,
                    39.970728
                ],
                "type": "Point"
            }
        },
        {
            "type": "Feature",
            "properties": {
                "name": "西二旗公租房代征地",
                "eleName": "出入口坡化"
            },
            "geometry": {
                "coordinates": [
                    116.31776,
                    40.054091
                ],
                "type": "Point"
            }
        },
        {
            "type": "Feature",
            "properties": {
                "name": "美和园",
                "eleName": "出入口坡化"
            },
            "geometry": {
                "coordinates": [
                    116.329502,
                    40.040883
                ],
                "type": "Point"
            }
        },
        {
            "type": "Feature",
            "properties": {
                "name": "颐源居",
                "eleName": "出入口坡化"
            },
            "geometry": {
                "coordinates": [
                    116.315737,
                    39.920914
                ],
                "type": "Point"
            }
        },
        {
            "type": "Feature",
            "properties": {
                "name": "马甸公园",
                "eleName": "出入口坡化"
            },
            "geometry": {
                "coordinates": [
                    116.386326,
                    39.978533
                ],
                "type": "Point"
            }
        },
        {
            "type": "Feature",
            "properties": {
                "name": "厢黄旗公园",
                "eleName": "出入口坡化"
            },
            "geometry": {
                "coordinates": [
                    116.301935,
                    40.036083
                ],
                "type": "Point"
            }
        },
        {
            "type": "Feature",
            "properties": {
                "name": "元大都（土城）城垣遗址公园（海淀段）标准段",
                "eleName": "出入口坡化"
            },
            "geometry": {
                "coordinates": [
                    116.36045,
                    39.978999
                ],
                "type": "Point"
            }
        },
        {
            "type": "Feature",
            "properties": {
                "name": "燕清文化体育公园",
                "eleName": "出入口坡化"
            },
            "geometry": {
                "coordinates": [
                    116.344487,
                    40.040423
                ],
                "type": "Point"
            }
        },
        {
            "type": "Feature",
            "properties": {
                "name": "百旺公园二期",
                "eleName": "出入口坡化"
            },
            "geometry": {
                "coordinates": [
                    116.272074,
                    40.045278
                ],
                "type": "Point"
            }
        },
        {
            "type": "Feature",
            "properties": {
                "name": "太舟坞安置房南侧",
                "eleName": "出入口坡化"
            },
            "geometry": {
                "coordinates": [
                    116.209045,
                    40.050467
                ],
                "type": "Point"
            }
        },
        {
            "type": "Feature",
            "properties": {
                "name": "阜石路南侧绿地",
                "eleName": "出入口坡化"
            },
            "geometry": {
                "coordinates": [
                    116.264051,
                    39.930062
                ],
                "type": "Point"
            }
        },
        {
            "type": "Feature",
            "properties": {
                "name": "百旺公园一期",
                "eleName": "出入口坡化"
            },
            "geometry": {
                "coordinates": [
                    116.260327,
                    40.051814
                ],
                "type": "Point"
            }
        },
        {
            "type": "Feature",
            "properties": {
                "name": "梵香公园",
                "eleName": "出入口坡化"
            },
            "geometry": {
                "coordinates": [
                    116.213979,
                    39.985246
                ],
                "type": "Point"
            }
        },
        {
            "type": "Feature",
            "properties": {
                "name": "当代绿地",
                "eleName": "出入口坡化"
            },
            "geometry": {
                "coordinates": [
                    116.327635,
                    39.974443
                ],
                "type": "Point"
            }
        },
        {
            "type": "Feature",
            "properties": {
                "name": "五棵松奥林匹克文化公园",
                "eleName": "出入口坡化"
            },
            "geometry": {
                "coordinates": [
                    116.281495,
                    39.915437
                ],
                "type": "Point"
            }
        },
        {
            "type": "Feature",
            "properties": {
                "name": "四季香山",
                "eleName": "出入口坡化"
            },
            "geometry": {
                "coordinates": [
                    116.252003,
                    39.965382
                ],
                "type": "Point"
            }
        },
        {
            "type": "Feature",
            "properties": {
                "name": "美丽经典",
                "eleName": "出入口坡化"
            },
            "geometry": {
                "coordinates": [
                    116.288791,
                    39.944554
                ],
                "type": "Point"
            }
        },
        {
            "type": "Feature",
            "properties": {
                "name": "蓝靛厂公园",
                "eleName": "出入口坡化"
            },
            "geometry": {
                "coordinates": [
                    116.282675,
                    39.971037
                ],
                "type": "Point"
            }
        },
        {
            "type": "Feature",
            "properties": {
                "name": "船营公园",
                "eleName": "出入口坡化"
            },
            "geometry": {
                "coordinates": [
                    116.274321,
                    39.977258
                ],
                "type": "Point"
            }
        },
        {
            "type": "Feature",
            "properties": {
                "name": "荷清园公园",
                "eleName": "出入口坡化"
            },
            "geometry": {
                "coordinates": [
                    116.331922,
                    40.022589
                ],
                "type": "Point"
            }
        },
        {
            "type": "Feature",
            "properties": {
                "name": "南长河公园二期",
                "eleName": "出入口坡化"
            },
            "geometry": {
                "coordinates": [
                    116.357468,
                    39.949283
                ],
                "type": "Point"
            }
        },
        {
            "type": "Feature",
            "properties": {
                "name": "树村郊野公园",
                "eleName": "出入口坡化"
            },
            "geometry": {
                "coordinates": [
                    116.310472,
                    40.032183
                ],
                "type": "Point"
            }
        },
        {
            "type": "Feature",
            "properties": {
                "name": "田村城市休闲公园",
                "eleName": "出入口坡化"
            },
            "geometry": {
                "coordinates": [
                    116.217395,
                    39.926323
                ],
                "type": "Point"
            }
        },
        {
            "type": "Feature",
            "properties": {
                "name": "水云居",
                "eleName": "出入口坡化"
            },
            "geometry": {
                "coordinates": [
                    116.288014,
                    39.94127
                ],
                "type": "Point"
            }
        },
        {
            "type": "Feature",
            "properties": {
                "name": "丰滢公园",
                "eleName": "出入口坡化"
            },
            "geometry": {
                "coordinates": [
                    116.255105,
                    40.077832
                ],
                "type": "Point"
            }
        },
        {
            "type": "Feature",
            "properties": {
                "name": "健翔园",
                "eleName": "出入口坡化"
            },
            "geometry": {
                "coordinates": [
                    116.382445,
                    39.995351
                ],
                "type": "Point"
            }
        },
        {
            "type": "Feature",
            "properties": {
                "name": "影湖楼公园",
                "eleName": "出入口坡化"
            },
            "geometry": {
                "coordinates": [
                    116.255488,
                    39.992502
                ],
                "type": "Point"
            }
        },
        {
            "type": "Feature",
            "properties": {
                "name": "妙云寺公园",
                "eleName": "出入口坡化"
            },
            "geometry": {
                "coordinates": [
                    116.237039,
                    39.998139
                ],
                "type": "Point"
            }
        },
        {
            "type": "Feature",
            "properties": {
                "name": "小营公园",
                "eleName": "出入口坡化"
            },
            "geometry": {
                "coordinates": [
                    116.353822,
                    40.048891
                ],
                "type": "Point"
            }
        },
        {
            "type": "Feature",
            "properties": {
                "name": "玲珑公园",
                "eleName": "出入口坡化"
            },
            "geometry": {
                "coordinates": [
                    116.301679,
                    39.935382
                ],
                "type": "Point"
            }
        },
        {
            "type": "Feature",
            "properties": {
                "name": "巴沟山水园",
                "eleName": "出入口坡化"
            },
            "geometry": {
                "coordinates": [
                    116.295482,
                    39.97614
                ],
                "type": "Point"
            }
        },
        {
            "type": "Feature",
            "properties": {
                "name": "苏家坨公园",
                "eleName": "出入口坡化"
            },
            "geometry": {
                "coordinates": [
                    116.152591,
                    40.120004
                ],
                "type": "Point"
            }
        },
        {
            "type": "Feature",
            "properties": {
                "name": "碧水风荷公园",
                "eleName": "出入口坡化"
            },
            "geometry": {
                "coordinates": [
                    116.345094,
                    40.045475
                ],
                "type": "Point"
            }
        },
        {
            "type": "Feature",
            "properties": {
                "name": "北大古镇",
                "eleName": "出入口坡化"
            },
            "geometry": {
                "coordinates": [
                    116.312544,
                    39.991839
                ],
                "type": "Point"
            }
        },
        {
            "type": "Feature",
            "properties": {
                "name": "同泽春园",
                "eleName": "出入口坡化"
            },
            "geometry": {
                "coordinates": [
                    116.148347,
                    40.109938
                ],
                "type": "Point"
            }
        },
        {
            "type": "Feature",
            "properties": {
                "name": "车道沟公园",
                "eleName": "出入口坡化"
            },
            "geometry": {
                "coordinates": [
                    116.30079,
                    39.950154
                ],
                "type": "Point"
            }
        },
        {
            "type": "Feature",
            "properties": {
                "name": "映月台",
                "eleName": "出入口坡化"
            },
            "geometry": {
                "coordinates": [
                    116.327564,
                    40.042481
                ],
                "type": "Point"
            }
        },
        {
            "type": "Feature",
            "properties": {
                "name": "前沙涧南区",
                "eleName": "出入口坡化"
            },
            "geometry": {
                "coordinates": [
                    116.145069,
                    40.112217
                ],
                "type": "Point"
            }
        },
        {
            "type": "Feature",
            "properties": {
                "name": "中坞公园",
                "eleName": "出入口坡化"
            },
            "geometry": {
                "coordinates": [
                    116.267134,
                    39.98685
                ],
                "type": "Point"
            }
        },
        {
            "type": "Feature",
            "properties": {
                "name": "尚峰尚水公园",
                "eleName": "出入口坡化"
            },
            "geometry": {
                "coordinates": [
                    116.190531,
                    40.051081
                ],
                "type": "Point"
            }
        },
        {
            "type": "Feature",
            "properties": {
                "name": "幸福花园",
                "eleName": "出入口坡化"
            },
            "geometry": {
                "coordinates": [
                    116.315946,
                    40.035895
                ],
                "type": "Point"
            }
        },
        {
            "type": "Feature",
            "properties": {
                "name": "同泽秋园",
                "eleName": "出入口坡化"
            },
            "geometry": {
                "coordinates": [
                    116.141497,
                    40.110884
                ],
                "type": "Point"
            }
        },
        {
            "type": "Feature",
            "properties": {
                "name": "北坞公园",
                "eleName": "出入口坡化"
            },
            "geometry": {
                "coordinates": [
                    116.261624,
                    39.991948
                ],
                "type": "Point"
            }
        },
        {
            "type": "Feature",
            "properties": {
                "name": "百旺茉莉园",
                "eleName": "出入口坡化"
            },
            "geometry": {
                "coordinates": [
                    116.262588,
                    40.053031
                ],
                "type": "Point"
            }
        },
        {
            "type": "Feature",
            "properties": {
                "name": "温泉宝盛绿地",
                "eleName": "出入口坡化"
            },
            "geometry": {
                "coordinates": [
                    116.181494,
                    40.054411
                ],
                "type": "Point"
            }
        },
        {
            "type": "Feature",
            "properties": {
                "name": "中关村广场",
                "eleName": "出入口坡化"
            },
            "geometry": {
                "coordinates": [
                    116.322154,
                    39.985407
                ],
                "type": "Point"
            }
        },
        {
            "type": "Feature",
            "properties": {
                "name": "小天鹅公园",
                "eleName": "出入口坡化"
            },
            "geometry": {
                "coordinates": [
                    116.315746,
                    39.919258
                ],
                "type": "Point"
            }
        },
        {
            "type": "Feature",
            "properties": {
                "name": "威凯代征地",
                "eleName": "出入口坡化"
            },
            "geometry": {
                "coordinates": [
                    116.209028,
                    40.131661
                ],
                "type": "Point"
            }
        },
        {
            "type": "Feature",
            "properties": {
                "name": "西小口公园",
                "eleName": "出入口坡化"
            },
            "geometry": {
                "coordinates": [
                    116.402387,
                    40.047147
                ],
                "type": "Point"
            }
        },
        {
            "type": "Feature",
            "properties": {
                "name": "温体中心",
                "eleName": "出入口坡化"
            },
            "geometry": {
                "coordinates": [
                    116.19539,
                    40.049498
                ],
                "type": "Point"
            }
        },
        {
            "type": "Feature",
            "properties": {
                "name": "用友",
                "eleName": "出入口坡化"
            },
            "geometry": {
                "coordinates": [
                    116.240538,
                    40.075693
                ],
                "type": "Point"
            }
        },
        {
            "type": "Feature",
            "properties": {
                "name": "南长河公园",
                "eleName": "出入口坡化"
            },
            "geometry": {
                "coordinates": [
                    116.308792,
                    39.956695
                ],
                "type": "Point"
            }
        },
        {
            "type": "Feature",
            "properties": {
                "name": "长春健身园",
                "eleName": "出入口坡化"
            },
            "geometry": {
                "coordinates": [
                    116.300104,
                    39.969125
                ],
                "type": "Point"
            }
        },
        {
            "type": "Feature",
            "properties": {
                "name": "燕语园",
                "eleName": "出入口坡化"
            },
            "geometry": {
                "coordinates": [
                    116.346158,
                    40.041074
                ],
                "type": "Point"
            }
        },
        {
            "type": "Feature",
            "properties": {
                "name": "阳光星期八公园",
                "eleName": "出入口坡化"
            },
            "geometry": {
                "coordinates": [
                    116.260886,
                    39.922315
                ],
                "type": "Point"
            }
        },
        {
            "type": "Feature",
            "properties": {
                "name": "园外园生态环境提升三期工程",
                "eleName": "出入口坡化"
            },
            "geometry": {
                "coordinates": [
                    116.22866,
                    39.983399
                ],
                "type": "Point"
            }
        },
        {
            "type": "Feature",
            "properties": {
                "name": "温泉公园二期",
                "eleName": "出入口坡化"
            },
            "geometry": {
                "coordinates": [
                    116.181492,
                    40.054376
                ],
                "type": "Point"
            }
        },
        {
            "type": "Feature",
            "properties": {
                "name": "辛店",
                "eleName": "出入口坡化"
            },
            "geometry": {
                "coordinates": [
                    116.26793,
                    40.094624
                ],
                "type": "Point"
            }
        },
        {
            "type": "Feature",
            "properties": {
                "name": "玉东郊野公园（两山公园）",
                "eleName": "出入口坡化"
            },
            "geometry": {
                "coordinates": [
                    116.264321,
                    39.997848
                ],
                "type": "Point"
            }
        },
        {
            "type": "Feature",
            "properties": {
                "name": "荷清园二期",
                "eleName": "出入口坡化"
            },
            "geometry": {
                "coordinates": [
                    116.32957,
                    40.01987
                ],
                "type": "Point"
            }
        },
        {
            "type": "Feature",
            "properties": {
                "name": "中银绿地",
                "eleName": "出入口坡化"
            },
            "geometry": {
                "coordinates": [
                    116.274401,
                    40.040487
                ],
                "type": "Point"
            }
        },
        {
            "type": "Feature",
            "properties": {
                "name": "定慧公园",
                "eleName": "出入口坡化"
            },
            "geometry": {
                "coordinates": [
                    116.292188,
                    39.926814
                ],
                "type": "Point"
            }
        },
        {
            "type": "Feature",
            "properties": {
                "name": "双紫花园",
                "eleName": "出入口坡化"
            },
            "geometry": {
                "coordinates": [
                    116.303767,
                    39.945438
                ],
                "type": "Point"
            }
        },
        {
            "type": "Feature",
            "properties": {
                "name": "王庄公园",
                "eleName": "出入口坡化"
            },
            "geometry": {
                "coordinates": [
                    116.353585,
                    40.006248
                ],
                "type": "Point"
            }
        },
        {
            "type": "Feature",
            "properties": {
                "name": "富力桃园",
                "eleName": "出入口坡化"
            },
            "geometry": {
                "coordinates": [
                    116.384812,
                    40.071807
                ],
                "type": "Point"
            }
        },
        {
            "type": "Feature",
            "properties": {
                "name": "北京印象北侧绿地",
                "eleName": "出入口坡化"
            },
            "geometry": {
                "coordinates": [
                    116.282239,
                    39.934535
                ],
                "type": "Point"
            }
        },
        {
            "type": "Feature",
            "properties": {
                "name": "温泉公园一期",
                "eleName": "出入口坡化"
            },
            "geometry": {
                "coordinates": [
                    116.188506,
                    40.055352
                ],
                "type": "Point"
            }
        },
        {
            "type": "Feature",
            "properties": {
                "name": "五棵松奥林匹克文化公园北园",
                "eleName": "出入口坡化"
            },
            "geometry": {
                "coordinates": [
                    116.281095,
                    39.915459
                ],
                "type": "Point"
            }
        },
        {
            "type": "Feature",
            "properties": {
                "name": "六街坊西社区小广场凉亭（627楼北侧）",
                "eleName": "出入口坡化"
            },
            "geometry": {
                "coordinates": [
                    116.277833,
                    39.914253
                ],
                "type": "Point"
            }
        },
        {
            "type": "Feature",
            "properties": {
                "name": "泽丰苑6号院活动小广场(3-4号楼之间)",
                "eleName": "出入口坡化"
            },
            "geometry": {
                "coordinates": [
                    116.267132,
                    39.926171
                ],
                "type": "Point"
            }
        },
        {
            "type": "Feature",
            "properties": {
                "name": "一街坊社区活动广场",
                "eleName": "出入口坡化"
            },
            "geometry": {
                "coordinates": [
                    116.274727,
                    39.918543
                ],
                "type": "Point"
            }
        },
        {
            "type": "Feature",
            "properties": {
                "name": "六街坊西社区小广场出入口和及凉亭（628楼南侧）",
                "eleName": "出入口坡化"
            },
            "geometry": {
                "coordinates": [
                    116.276431,
                    39.915763
                ],
                "type": "Point"
            }
        },
        {
            "type": "Feature",
            "properties": {
                "name": "泽丰苑6号院活动小广场(1号楼南)",
                "eleName": "出入口坡化"
            },
            "geometry": {
                "coordinates": [
                    116.268048,
                    39.928481
                ],
                "type": "Point"
            }
        },
        {
            "type": "Feature",
            "properties": {
                "name": "泽丰苑6号院活动小广场(3号楼北绿地)",
                "eleName": "出入口坡化"
            },
            "geometry": {
                "coordinates": [
                    116.267312,
                    39.926074
                ],
                "type": "Point"
            }
        },
        {
            "type": "Feature",
            "properties": {
                "name": "一街坊社区活动小广场",
                "eleName": "出入口坡化"
            },
            "geometry": {
                "coordinates": [
                    116.272686,
                    39.917568
                ],
                "type": "Point"
            }
        },
        {
            "type": "Feature",
            "properties": {
                "name": "永金里门球场",
                "eleName": "出入口坡化"
            },
            "geometry": {
                "coordinates": [
                    116.277552,
                    39.927247
                ],
                "type": "Point"
            }
        },
        {
            "type": "Feature",
            "properties": {
                "name": "北洼路北洼园",
                "eleName": "出入口坡化"
            },
            "geometry": {
                "coordinates": [
                    116.310738,
                    39.942547
                ],
                "type": "Point"
            }
        },
        {
            "type": "Feature",
            "properties": {
                "name": "海淀南路5号楼南侧绿地",
                "eleName": "出入口坡化"
            },
            "geometry": {
                "coordinates": [
                    116.316954,
                    39.982044
                ],
                "type": "Point"
            }
        },
        {
            "type": "Feature",
            "properties": {
                "name": "海淀南路浦发银行南侧绿地",
                "eleName": "出入口坡化"
            },
            "geometry": {
                "coordinates": [
                    116.317493,
                    39.982061
                ],
                "type": "Point"
            }
        },
        {
            "type": "Feature",
            "properties": {
                "name": "海淀南路9号楼南侧绿地",
                "eleName": "出入口坡化"
            },
            "geometry": {
                "coordinates": [
                    116.31536,
                    39.982016
                ],
                "type": "Point"
            }
        },
        {
            "type": "Feature",
            "properties": {
                "name": "海淀南路7号楼南侧绿地",
                "eleName": "出入口坡化"
            },
            "geometry": {
                "coordinates": [
                    116.315953,
                    39.982033
                ],
                "type": "Point"
            }
        },
        {
            "type": "Feature",
            "properties": {
                "name": "海淀南路3号楼南侧绿地",
                "eleName": "出入口坡化"
            },
            "geometry": {
                "coordinates": [
                    116.319546,
                    39.982106
                ],
                "type": "Point"
            }
        },
        {
            "type": "Feature",
            "properties": {
                "name": "海淀南路海淀医院南门绿地",
                "eleName": "出入口坡化"
            },
            "geometry": {
                "coordinates": [
                    116.320224,
                    39.982102
                ],
                "type": "Point"
            }
        },
        {
            "type": "Feature",
            "properties": {
                "name": "马连洼街道法治文化广场",
                "eleName": "出入口坡化"
            },
            "geometry": {
                "coordinates": [
                    116.258379,
                    40.053288
                ],
                "type": "Point"
            }
        },
        {
            "type": "Feature",
            "properties": {
                "name": "东升文体公园",
                "eleName": "出入口坡化"
            },
            "geometry": {
                "coordinates": [
                    116.382036,
                    40.046114
                ],
                "type": "Point"
            }
        },
        {
            "type": "Feature",
            "properties": {
                "name": "东升八家郊野公园",
                "eleName": "出入口坡化"
            },
            "geometry": {
                "coordinates": [
                    116.346724,
                    40.025813
                ],
                "type": "Point"
            }
        },
        {
            "type": "Feature",
            "properties": {
                "name": "韩家川村文化广场",
                "eleName": "出入口坡化"
            },
            "geometry": {
                "coordinates": [
                    116.25421,
                    40.042756
                ],
                "type": "Point"
            }
        },
        {
            "type": "Feature",
            "properties": {
                "name": "图景嘉园社区普法广场",
                "eleName": "出入口坡化"
            },
            "geometry": {
                "coordinates": [
                    116.278151,
                    40.070272
                ],
                "type": "Point"
            }
        },
        {
            "type": "Feature",
            "properties": {
                "name": "西六里屯社区广场",
                "eleName": "出入口坡化"
            },
            "geometry": {
                "coordinates": [
                    116.236025,
                    40.057547
                ],
                "type": "Point"
            }
        },
        {
            "type": "Feature",
            "properties": {
                "name": "唐家岭社区普法广场",
                "eleName": "出入口坡化"
            },
            "geometry": {
                "coordinates": [
                    116.284492,
                    40.073635
                ],
                "type": "Point"
            }
        },
        {
            "type": "Feature",
            "properties": {
                "name": "燕保辛店家园社区广场",
                "eleName": "出入口坡化"
            },
            "geometry": {
                "coordinates": [
                    116.26902,
                    40.09078
                ],
                "type": "Point"
            }
        },
        {
            "type": "Feature",
            "properties": {
                "name": "馨悦家园公园",
                "eleName": "出入口坡化"
            },
            "geometry": {
                "coordinates": [
                    116.219243,
                    40.133568
                ],
                "type": "Point"
            }
        },
        {
            "type": "Feature",
            "properties": {
                "name": "德胜公园",
                "eleName": "出入口坡化"
            },
            "geometry": {
                "coordinates": [
                    116.388899,
                    39.954715
                ],
                "type": "Point"
            }
        },
        {
            "type": "Feature",
            "properties": {
                "name": "白云公园",
                "eleName": "出入口坡化"
            },
            "geometry": {
                "coordinates": [
                    116.352222,
                    39.908487
                ],
                "type": "Point"
            }
        },
        {
            "type": "Feature",
            "properties": {
                "name": "北滨河公园",
                "eleName": "出入口坡化"
            },
            "geometry": {
                "coordinates": [
                    116.397504,
                    39.956468
                ],
                "type": "Point"
            }
        },
        {
            "type": "Feature",
            "properties": {
                "name": "玫瑰公园",
                "eleName": "出入口坡化"
            },
            "geometry": {
                "coordinates": [
                    116.387884,
                    39.976414
                ],
                "type": "Point"
            }
        },
        {
            "type": "Feature",
            "properties": {
                "name": "双秀公园",
                "eleName": "出入口坡化"
            },
            "geometry": {
                "coordinates": [
                    116.381297,
                    39.972598
                ],
                "type": "Point"
            }
        },
        {
            "type": "Feature",
            "properties": {
                "name": "广宁公园",
                "eleName": "出入口坡化"
            },
            "geometry": {
                "coordinates": [
                    116.364613,
                    39.895617
                ],
                "type": "Point"
            }
        },
        {
            "type": "Feature",
            "properties": {
                "name": "逸骏园",
                "eleName": "出入口坡化"
            },
            "geometry": {
                "coordinates": [
                    116.345189,
                    39.902716
                ],
                "type": "Point"
            }
        },
        {
            "type": "Feature",
            "properties": {
                "name": "北滨河绿道",
                "eleName": "出入口坡化"
            },
            "geometry": {
                "coordinates": [
                    116.393063,
                    39.955774
                ],
                "type": "Point"
            }
        },
        {
            "type": "Feature",
            "properties": {
                "name": "北京滨河公园",
                "eleName": "出入口坡化"
            },
            "geometry": {
                "coordinates": [
                    116.355878,
                    39.899752
                ],
                "type": "Point"
            }
        },
        {
            "type": "Feature",
            "properties": {
                "name": "南礼士路公园",
                "eleName": "出入口坡化"
            },
            "geometry": {
                "coordinates": [
                    116.361029,
                    39.91661
                ],
                "type": "Point"
            }
        },
        {
            "type": "Feature",
            "properties": {
                "name": "宣武艺园",
                "eleName": "出入口坡化"
            },
            "geometry": {
                "coordinates": [
                    116.365749,
                    39.901061
                ],
                "type": "Point"
            }
        },
        {
            "type": "Feature",
            "properties": {
                "name": "京韵园",
                "eleName": "出入口坡化"
            },
            "geometry": {
                "coordinates": [
                    116.393193,
                    39.89614
                ],
                "type": "Point"
            }
        },
        {
            "type": "Feature",
            "properties": {
                "name": "金融街中心公园",
                "eleName": "出入口坡化"
            },
            "geometry": {
                "coordinates": [
                    116.368249,
                    39.922715
                ],
                "type": "Point"
            }
        },
        {
            "type": "Feature",
            "properties": {
                "name": "金中都公园",
                "eleName": "出入口坡化"
            },
            "geometry": {
                "coordinates": [
                    116.356383,
                    39.877073
                ],
                "type": "Point"
            }
        },
        {
            "type": "Feature",
            "properties": {
                "name": "新街口城市森林公园",
                "eleName": "出入口坡化"
            },